<?xml version="1.0" encoding="UTF-8"?>
<kml xmlns="http://earth.google.com/kml/2.2/">
    <Document>
        <name>MRDS-Inyo</name>
        <Placemark>
            <name>Adamson Mine</name>
            <styleUrl>#PlantStyleMap</styleUrl>
            <Point>
                <altitudeMode>relativeToGround</altitudeMode>
                <coordinates>-118.70425,37.36164,0</coordinates>
            </Point>
        </Placemark>
        <Placemark>
            <name>Alameda Mine</name>
            <styleUrl>#Past ProducerStyleMap</styleUrl>
            <Point>
                <altitudeMode>relativeToGround</altitudeMode>
                <coordinates>-117.5781,36.27077,0</coordinates>
            </Point>
        </Placemark>
        <Placemark>
            <name>Alice Quartz Mine</name>
            <styleUrl>#Past ProducerStyleMap</styleUrl>
            <Point>
                <altitudeMode>relativeToGround</altitudeMode>
                <coordinates>-118.18983,37.08605,0</coordinates>
            </Point>
        </Placemark>
        <Placemark>
            <name>Alliance Talc Mine</name>
            <styleUrl>#Past ProducerStyleMap</styleUrl>
            <Point>
                <altitudeMode>relativeToGround</altitudeMode>
                <coordinates>-117.67231,36.34137,0</coordinates>
            </Point>
        </Placemark>
        <Placemark>
            <name>Alvord Mine</name>
            <styleUrl>#defaultStyleMap</styleUrl>
            <Point>
                <altitudeMode>relativeToGround</altitudeMode>
                <coordinates>-118.19283,37.14355,0</coordinates>
            </Point>
        </Placemark>
        <Placemark>
            <name>American Flag Mine</name>
            <styleUrl>#Past ProducerStyleMap</styleUrl>
            <Point>
                <altitudeMode>relativeToGround</altitudeMode>
                <coordinates>-117.85452,36.64886,0</coordinates>
            </Point>
        </Placemark>
        <Placemark>
            <name>American Silver Corp.</name>
            <styleUrl>#defaultStyleMap</styleUrl>
            <Point>
                <altitudeMode>relativeToGround</altitudeMode>
                <coordinates>-117.09699,36.10328,0</coordinates>
            </Point>
        </Placemark>
        <Placemark>
            <name>Anthony Mine</name>
            <styleUrl>#defaultStyleMap</styleUrl>
            <Point>
                <altitudeMode>relativeToGround</altitudeMode>
                <coordinates>-117.37229,36.00638,0</coordinates>
            </Point>
        </Placemark>
        <Placemark>
            <name>Apex Consolidated Group</name>
            <styleUrl>#Past ProducerStyleMap</styleUrl>
            <Point>
                <altitudeMode>relativeToGround</altitudeMode>
                <coordinates>-116.12276,35.84219,0</coordinates>
            </Point>
        </Placemark>
        <Placemark>
            <name>Argenta Mine</name>
            <styleUrl>#Past ProducerStyleMap</styleUrl>
            <Point>
                <altitudeMode>relativeToGround</altitudeMode>
                <coordinates>-117.08119,36.33327,0</coordinates>
            </Point>
        </Placemark>
        <Placemark>
            <name>Arletta Talc Mine</name>
            <styleUrl>#defaultStyleMap</styleUrl>
            <Point>
                <altitudeMode>relativeToGround</altitudeMode>
                <coordinates>-116.33416,35.83329,0</coordinates>
            </Point>
        </Placemark>
        <Placemark>
            <name>Arondo Mine</name>
            <styleUrl>#Past ProducerStyleMap</styleUrl>
            <Point>
                <altitudeMode>relativeToGround</altitudeMode>
                <coordinates>-117.38589,35.90748,0</coordinates>
            </Point>
        </Placemark>
        <Placemark>
            <name>Ashford Mine</name>
            <styleUrl>#Past ProducerStyleMap</styleUrl>
            <Point>
                <altitudeMode>relativeToGround</altitudeMode>
                <coordinates>-116.64027,35.95719,0</coordinates>
            </Point>
        </Placemark>
        <Placemark>
            <name>Auguste Mine</name>
            <styleUrl>#Past ProducerStyleMap</styleUrl>
            <Point>
                <altitudeMode>relativeToGround</altitudeMode>
                <coordinates>-117.81031,36.58106,0</coordinates>
            </Point>
        </Placemark>
        <Placemark>
            <name>Bachelor No. 2 Mine</name>
            <styleUrl>#Past ProducerStyleMap</styleUrl>
            <Point>
                <altitudeMode>relativeToGround</altitudeMode>
                <coordinates>-117.13169,36.11028,0</coordinates>
            </Point>
        </Placemark>
        <Placemark>
            <name>Baldy Mine</name>
            <styleUrl>#defaultStyleMap</styleUrl>
            <Point>
                <altitudeMode>relativeToGround</altitudeMode>
                <coordinates>-117.4601,36.20807,0</coordinates>
            </Point>
        </Placemark>
        <Placemark>
            <name>Barranca Mine</name>
            <styleUrl>#Past ProducerStyleMap</styleUrl>
            <Point>
                <altitudeMode>relativeToGround</altitudeMode>
                <coordinates>-117.84762,36.69886,0</coordinates>
            </Point>
        </Placemark>
        <Placemark>
            <name>Beebe Mine</name>
            <styleUrl>#defaultStyleMap</styleUrl>
            <Point>
                <altitudeMode>relativeToGround</altitudeMode>
                <coordinates>-117.87761,36.16497,0</coordinates>
            </Point>
        </Placemark>
        <Placemark>
            <name>Bendire Canyon Mine</name>
            <styleUrl>#defaultStyleMap</styleUrl>
            <Point>
                <altitudeMode>relativeToGround</altitudeMode>
                <coordinates>-117.4384,36.10278,0</coordinates>
            </Point>
        </Placemark>
        <Placemark>
            <name>Betty Jumbo Mine</name>
            <styleUrl>#defaultStyleMap</styleUrl>
            <Point>
                <altitudeMode>relativeToGround</altitudeMode>
                <coordinates>-118.03982,36.80826,0</coordinates>
            </Point>
        </Placemark>
        <Placemark>
            <name>Beveridge Canyon Mn No. 12 Mine</name>
            <styleUrl>#Past ProducerStyleMap</styleUrl>
            <Point>
                <altitudeMode>relativeToGround</altitudeMode>
                <coordinates>-117.91922,36.70916,0</coordinates>
            </Point>
        </Placemark>
        <Placemark>
            <name>Beveridge Mine</name>
            <styleUrl>#PlantStyleMap</styleUrl>
            <Point>
                <altitudeMode>relativeToGround</altitudeMode>
                <coordinates>-117.90922,36.70826,0</coordinates>
            </Point>
        </Placemark>
        <Placemark>
            <name>Big Four Mine</name>
            <styleUrl>#Past ProducerStyleMap</styleUrl>
            <Point>
                <altitudeMode>relativeToGround</altitudeMode>
                <coordinates>-117.3898,36.42777,0</coordinates>
            </Point>
        </Placemark>
        <Placemark>
            <name>Big Horn Mine Area</name>
            <styleUrl>#Past ProducerStyleMap</styleUrl>
            <Point>
                <altitudeMode>relativeToGround</altitudeMode>
                <coordinates>-117.90172,36.68746,0</coordinates>
            </Point>
        </Placemark>
        <Placemark>
            <name>Big Silver Mine</name>
            <styleUrl>#Past ProducerStyleMap</styleUrl>
            <Point>
                <altitudeMode>relativeToGround</altitudeMode>
                <coordinates>-117.83341,36.67276,0</coordinates>
            </Point>
        </Placemark>
        <Placemark>
            <name>Billie Mine</name>
            <styleUrl>#Past ProducerStyleMap</styleUrl>
            <Point>
                <altitudeMode>relativeToGround</altitudeMode>
                <coordinates>-116.68978,36.33938,0</coordinates>
            </Point>
        </Placemark>
        <Placemark>
            <name>Birch Creek Rare Ii Area</name>
            <styleUrl>#Past ProducerStyleMap</styleUrl>
            <Point>
                <altitudeMode>relativeToGround</altitudeMode>
                <coordinates>-118.10623,37.42384,0</coordinates>
            </Point>
        </Placemark>
        <Placemark>
            <name>Bishop Antimony Mine</name>
            <styleUrl>#Past ProducerStyleMap</styleUrl>
            <Point>
                <altitudeMode>relativeToGround</altitudeMode>
                <coordinates>-118.42534,37.31884,0</coordinates>
            </Point>
        </Placemark>
        <Placemark>
            <name>Bishop Silver-Cobalt Mines</name>
            <styleUrl>#defaultStyleMap</styleUrl>
            <Point>
                <altitudeMode>relativeToGround</altitudeMode>
                <coordinates>-118.54704,37.14435,0</coordinates>
            </Point>
        </Placemark>
        <Placemark>
            <name>Black Canyon</name>
            <styleUrl>#Past ProducerStyleMap</styleUrl>
            <Point>
                <altitudeMode>relativeToGround</altitudeMode>
                <coordinates>-118.20423,37.33325,0</coordinates>
            </Point>
        </Placemark>
        <Placemark>
            <name>Black Eagle Mine</name>
            <styleUrl>#Past ProducerStyleMap</styleUrl>
            <Point>
                <altitudeMode>relativeToGround</altitudeMode>
                <coordinates>-118.04092,36.82056,0</coordinates>
            </Point>
        </Placemark>
        <Placemark>
            <name>Blake Mine</name>
            <styleUrl>#Past ProducerStyleMap</styleUrl>
            <Point>
                <altitudeMode>relativeToGround</altitudeMode>
                <coordinates>-118.17593,37.08665,0</coordinates>
            </Point>
        </Placemark>
        <Placemark>
            <name>Blue Belle</name>
            <styleUrl>#defaultStyleMap</styleUrl>
            <Point>
                <altitudeMode>relativeToGround</altitudeMode>
                <coordinates>-117.4481,36.20967,0</coordinates>
            </Point>
        </Placemark>
        <Placemark>
            <name>Blue Compressor Mine</name>
            <styleUrl>#defaultStyleMap</styleUrl>
            <Point>
                <altitudeMode>relativeToGround</altitudeMode>
                <coordinates>-118.00153,37.45134,0</coordinates>
            </Point>
        </Placemark>
        <Placemark>
            <name>Blue Eagle Mine</name>
            <styleUrl>#Past ProducerStyleMap</styleUrl>
            <Point>
                <altitudeMode>relativeToGround</altitudeMode>
                <coordinates>-117.7115,36.10107,0</coordinates>
            </Point>
        </Placemark>
        <Placemark>
            <name>Blueledge Mine</name>
            <styleUrl>#Past ProducerStyleMap</styleUrl>
            <Point>
                <altitudeMode>relativeToGround</altitudeMode>
                <coordinates>-117.93952,36.73916,0</coordinates>
            </Point>
        </Placemark>
        <Placemark>
            <name>Blue Monster Mine</name>
            <styleUrl>#Past ProducerStyleMap</styleUrl>
            <Point>
                <altitudeMode>relativeToGround</altitudeMode>
                <coordinates>-117.95762,36.89306,0</coordinates>
            </Point>
        </Placemark>
        <Placemark>
            <name>Blue Rock Mine</name>
            <styleUrl>#defaultStyleMap</styleUrl>
            <Point>
                <altitudeMode>relativeToGround</altitudeMode>
                <coordinates>-117.6487,36.11997,0</coordinates>
            </Point>
        </Placemark>
        <Placemark>
            <name>Blue Star Talc Mine</name>
            <styleUrl>#Past ProducerStyleMap</styleUrl>
            <Point>
                <altitudeMode>relativeToGround</altitudeMode>
                <coordinates>-118.40514,37.12105,0</coordinates>
            </Point>
        </Placemark>
        <Placemark>
            <name>Blue Stone Talc Mine</name>
            <styleUrl>#Past ProducerStyleMap</styleUrl>
            <Point>
                <altitudeMode>relativeToGround</altitudeMode>
                <coordinates>-118.06592,36.90775,0</coordinates>
            </Point>
        </Placemark>
        <Placemark>
            <name>Boraxo Mine</name>
            <styleUrl>#Past ProducerStyleMap</styleUrl>
            <Point>
                <altitudeMode>relativeToGround</altitudeMode>
                <coordinates>-116.70758,36.34278,0</coordinates>
            </Point>
        </Placemark>
        <Placemark>
            <name>Briggs Mine</name>
            <styleUrl>#ProducerStyleMap</styleUrl>
            <Point>
                <altitudeMode>relativeToGround</altitudeMode>
                <coordinates>-117.185,35.9375,0</coordinates>
            </Point>
        </Placemark>
        <Placemark>
            <name>Brownstone Mine</name>
            <styleUrl>#Past ProducerStyleMap</styleUrl>
            <Point>
                <altitudeMode>relativeToGround</altitudeMode>
                <coordinates>-118.70765,37.35244,0</coordinates>
            </Point>
        </Placemark>
        <Placemark>
            <name>Buckhorn Mine</name>
            <styleUrl>#Past ProducerStyleMap</styleUrl>
            <Point>
                <altitudeMode>relativeToGround</altitudeMode>
                <coordinates>-117.5665,36.32077,0</coordinates>
            </Point>
        </Placemark>
        <Placemark>
            <name>Burgess</name>
            <styleUrl>#Past ProducerStyleMap</styleUrl>
            <Point>
                <altitudeMode>relativeToGround</altitudeMode>
                <coordinates>-117.91622,36.62996,0</coordinates>
            </Point>
        </Placemark>
        <Placemark>
            <name>Caffee Manganese Mine</name>
            <styleUrl>#defaultStyleMap</styleUrl>
            <Point>
                <altitudeMode>relativeToGround</altitudeMode>
                <coordinates>-118.03842,36.33357,0</coordinates>
            </Point>
        </Placemark>
        <Placemark>
            <name>Carol J. Mine</name>
            <styleUrl>#Past ProducerStyleMap</styleUrl>
            <Point>
                <altitudeMode>relativeToGround</altitudeMode>
                <coordinates>-118.20533,37.33495,0</coordinates>
            </Point>
        </Placemark>
        <Placemark>
            <name>Cashier</name>
            <styleUrl>#Past ProducerStyleMap</styleUrl>
            <Point>
                <altitudeMode>relativeToGround</altitudeMode>
                <coordinates>-117.10899,36.36247,0</coordinates>
            </Point>
        </Placemark>
        <Placemark>
            <name>Cecil R Mine</name>
            <styleUrl>#Past ProducerStyleMap</styleUrl>
            <Point>
                <altitudeMode>relativeToGround</altitudeMode>
                <coordinates>-117.18509,35.97858,0</coordinates>
            </Point>
        </Placemark>
        <Placemark>
            <name>Cerro Gordo</name>
            <styleUrl>#Past ProducerStyleMap</styleUrl>
            <Point>
                <altitudeMode>relativeToGround</altitudeMode>
                <coordinates>-117.78758,36.53774,0</coordinates>
            </Point>
        </Placemark>
        <Placemark>
            <name>Cerro Gordo Mine</name>
            <styleUrl>#Past ProducerStyleMap</styleUrl>
            <Point>
                <altitudeMode>relativeToGround</altitudeMode>
                <coordinates>-117.79371,36.53966,0</coordinates>
            </Point>
        </Placemark>
        <Placemark>
            <name>Chambers Mine</name>
            <styleUrl>#PlantStyleMap</styleUrl>
            <Point>
                <altitudeMode>relativeToGround</altitudeMode>
                <coordinates>-117.92202,36.71776,0</coordinates>
            </Point>
        </Placemark>
        <Placemark>
            <name>Cinnamon Mine</name>
            <styleUrl>#Past ProducerStyleMap</styleUrl>
            <Point>
                <altitudeMode>relativeToGround</altitudeMode>
                <coordinates>-117.92512,36.73436,0</coordinates>
            </Point>
        </Placemark>
        <Placemark>
            <name>Columbia</name>
            <styleUrl>#Past ProducerStyleMap</styleUrl>
            <Point>
                <altitudeMode>relativeToGround</altitudeMode>
                <coordinates>-117.562,36.24167,0</coordinates>
            </Point>
        </Placemark>
        <Placemark>
            <name>Columbia No. 2</name>
            <styleUrl>#Past ProducerStyleMap</styleUrl>
            <Point>
                <altitudeMode>relativeToGround</altitudeMode>
                <coordinates>-116.10146,35.82639,0</coordinates>
            </Point>
        </Placemark>
        <Placemark>
            <name>Commetti Mines</name>
            <styleUrl>#Past ProducerStyleMap</styleUrl>
            <Point>
                <altitudeMode>relativeToGround</altitudeMode>
                <coordinates>-118.29873,37.08745,0</coordinates>
            </Point>
        </Placemark>
        <Placemark>
            <name>Cooper Mine</name>
            <styleUrl>#defaultStyleMap</styleUrl>
            <Point>
                <altitudeMode>relativeToGround</altitudeMode>
                <coordinates>-117.07729,36.04308,0</coordinates>
            </Point>
        </Placemark>
        <Placemark>
            <name>Copper King Mine</name>
            <styleUrl>#defaultStyleMap</styleUrl>
            <Point>
                <altitudeMode>relativeToGround</altitudeMode>
                <coordinates>-117.5362,36.14747,0</coordinates>
            </Point>
        </Placemark>
        <Placemark>
            <name>Corkscrew Mine</name>
            <styleUrl>#Past ProducerStyleMap</styleUrl>
            <Point>
                <altitudeMode>relativeToGround</altitudeMode>
                <coordinates>-116.76228,36.36358,0</coordinates>
            </Point>
        </Placemark>
        <Placemark>
            <name>Coso Range Uranium</name>
            <styleUrl>#Past ProducerStyleMap</styleUrl>
            <Point>
                <altitudeMode>relativeToGround</altitudeMode>
                <coordinates>-117.90841,36.16247,0</coordinates>
            </Point>
        </Placemark>
        <Placemark>
            <name>Cougar Mine</name>
            <styleUrl>#Past ProducerStyleMap</styleUrl>
            <Point>
                <altitudeMode>relativeToGround</altitudeMode>
                <coordinates>-117.96782,36.78026,0</coordinates>
            </Point>
        </Placemark>
        <Placemark>
            <name>Crescent Mine</name>
            <styleUrl>#Past ProducerStyleMap</styleUrl>
            <Point>
                <altitudeMode>relativeToGround</altitudeMode>
                <coordinates>-117.13059,35.82888,0</coordinates>
            </Point>
        </Placemark>
        <Placemark>
            <name>Crystal Mine</name>
            <styleUrl>#Past ProducerStyleMap</styleUrl>
            <Point>
                <altitudeMode>relativeToGround</altitudeMode>
                <coordinates>-117.93812,36.74306,0</coordinates>
            </Point>
        </Placemark>
        <Placemark>
            <name>D and M Lead-Silver Property</name>
            <styleUrl>#defaultStyleMap</styleUrl>
            <Point>
                <altitudeMode>relativeToGround</altitudeMode>
                <coordinates>-117.4581,36.28387,0</coordinates>
            </Point>
        </Placemark>
        <Placemark>
            <name>Darwin Antimony Mine</name>
            <styleUrl>#Past ProducerStyleMap</styleUrl>
            <Point>
                <altitudeMode>relativeToGround</altitudeMode>
                <coordinates>-117.6048,36.31607,0</coordinates>
            </Point>
        </Placemark>
        <Placemark>
            <name>Darwin Mines</name>
            <styleUrl>#Past ProducerStyleMap</styleUrl>
            <Point>
                <altitudeMode>relativeToGround</altitudeMode>
                <coordinates>-117.59979,36.29025,0</coordinates>
            </Point>
        </Placemark>
        <Placemark>
            <name>Davenport Mine</name>
            <styleUrl>#Past ProducerStyleMap</styleUrl>
            <Point>
                <altitudeMode>relativeToGround</altitudeMode>
                <coordinates>-117.38449,35.90218,0</coordinates>
            </Point>
        </Placemark>
        <Placemark>
            <name>Debely Mine</name>
            <styleUrl>#Past ProducerStyleMap</styleUrl>
            <Point>
                <altitudeMode>relativeToGround</altitudeMode>
                <coordinates>-116.74448,36.36168,0</coordinates>
            </Point>
        </Placemark>
        <Placemark>
            <name>December Mine</name>
            <styleUrl>#defaultStyleMap</styleUrl>
            <Point>
                <altitudeMode>relativeToGround</altitudeMode>
                <coordinates>-118.08702,36.62166,0</coordinates>
            </Point>
        </Placemark>
        <Placemark>
            <name>Defense Mine</name>
            <styleUrl>#Past ProducerStyleMap</styleUrl>
            <Point>
                <altitudeMode>relativeToGround</altitudeMode>
                <coordinates>-117.4612,36.24437,0</coordinates>
            </Point>
        </Placemark>
        <Placemark>
            <name>Dennis Jr. Mine</name>
            <styleUrl>#defaultStyleMap</styleUrl>
            <Point>
                <altitudeMode>relativeToGround</altitudeMode>
                <coordinates>-118.05652,36.76666,0</coordinates>
            </Point>
        </Placemark>
        <Placemark>
            <name>Donna Loy Talc Mine</name>
            <styleUrl>#defaultStyleMap</styleUrl>
            <Point>
                <altitudeMode>relativeToGround</altitudeMode>
                <coordinates>-116.08616,35.80749,0</coordinates>
            </Point>
        </Placemark>
        <Placemark>
            <name>Doris Dee Talc Mine</name>
            <styleUrl>#Past ProducerStyleMap</styleUrl>
            <Point>
                <altitudeMode>relativeToGround</altitudeMode>
                <coordinates>-117.92402,36.81966,0</coordinates>
            </Point>
        </Placemark>
        <Placemark>
            <name>East Coleman Mine</name>
            <styleUrl>#Past ProducerStyleMap</styleUrl>
            <Point>
                <altitudeMode>relativeToGround</altitudeMode>
                <coordinates>-116.83949,36.46557,0</coordinates>
            </Point>
        </Placemark>
        <Placemark>
            <name>East End Mine</name>
            <styleUrl>#Past ProducerStyleMap</styleUrl>
            <Point>
                <altitudeMode>relativeToGround</altitudeMode>
                <coordinates>-117.64531,36.33967,0</coordinates>
            </Point>
        </Placemark>
        <Placemark>
            <name>Eureka Consolidated Quartz Mine</name>
            <styleUrl>#defaultStyleMap</styleUrl>
            <Point>
                <altitudeMode>relativeToGround</altitudeMode>
                <coordinates>-118.18203,36.94575,0</coordinates>
            </Point>
        </Placemark>
        <Placemark>
            <name>(Facility) Inyo Copper Mines and Smelter Co.</name>
            <styleUrl>#PlantStyleMap</styleUrl>
            <Point>
                <altitudeMode>relativeToGround</altitudeMode>
                <coordinates>-117.4681,36.59187,0</coordinates>
            </Point>
        </Placemark>
        <Placemark>
            <name>Fairbanks Mine</name>
            <styleUrl>#defaultStyleMap</styleUrl>
            <Point>
                <altitudeMode>relativeToGround</altitudeMode>
                <coordinates>-117.599,36.31107,0</coordinates>
            </Point>
        </Placemark>
        <Placemark>
            <name>Feldman Tungsten Mine</name>
            <styleUrl>#defaultStyleMap</styleUrl>
            <Point>
                <altitudeMode>relativeToGround</altitudeMode>
                <coordinates>-117.88061,35.93528,0</coordinates>
            </Point>
        </Placemark>
        <Placemark>
            <name>Fernando Mine</name>
            <styleUrl>#PlantStyleMap</styleUrl>
            <Point>
                <altitudeMode>relativeToGround</altitudeMode>
                <coordinates>-117.574,36.26827,0</coordinates>
            </Point>
        </Placemark>
        <Placemark>
            <name>Finance Mine</name>
            <styleUrl>#Past ProducerStyleMap</styleUrl>
            <Point>
                <altitudeMode>relativeToGround</altitudeMode>
                <coordinates>-117.14279,36.44497,0</coordinates>
            </Point>
        </Placemark>
        <Placemark>
            <name>Five Tunnels Mine</name>
            <styleUrl>#defaultStyleMap</styleUrl>
            <Point>
                <altitudeMode>relativeToGround</altitudeMode>
                <coordinates>-117.87781,36.16247,0</coordinates>
            </Point>
        </Placemark>
        <Placemark>
            <name>Free Coinage Mine</name>
            <styleUrl>#defaultStyleMap</styleUrl>
            <Point>
                <altitudeMode>relativeToGround</altitudeMode>
                <coordinates>-117.4503,36.21437,0</coordinates>
            </Point>
        </Placemark>
        <Placemark>
            <name>Frisco Mine</name>
            <styleUrl>#Past ProducerStyleMap</styleUrl>
            <Point>
                <altitudeMode>relativeToGround</altitudeMode>
                <coordinates>-117.68031,36.32937,0</coordinates>
            </Point>
        </Placemark>
        <Placemark>
            <name>Galena Mines</name>
            <styleUrl>#defaultStyleMap</styleUrl>
            <Point>
                <altitudeMode>relativeToGround</altitudeMode>
                <coordinates>-116.77839,36.62467,0</coordinates>
            </Point>
        </Placemark>
        <Placemark>
            <name>Gavalan Mine Area</name>
            <styleUrl>#Past ProducerStyleMap</styleUrl>
            <Point>
                <altitudeMode>relativeToGround</altitudeMode>
                <coordinates>-117.90872,36.68216,0</coordinates>
            </Point>
        </Placemark>
        <Placemark>
            <name>Georgia Mine</name>
            <styleUrl>#defaultStyleMap</styleUrl>
            <Point>
                <altitudeMode>relativeToGround</altitudeMode>
                <coordinates>-118.24843,37.35684,0</coordinates>
            </Point>
        </Placemark>
        <Placemark>
            <name>Gerstley Ii Mine</name>
            <styleUrl>#Past ProducerStyleMap</styleUrl>
            <Point>
                <altitudeMode>relativeToGround</altitudeMode>
                <coordinates>-116.23586,36.01609,0</coordinates>
            </Point>
        </Placemark>
        <Placemark>
            <name>Gerstley Mine</name>
            <styleUrl>#ProducerStyleMap</styleUrl>
            <Point>
                <altitudeMode>relativeToGround</altitudeMode>
                <coordinates>-116.24616,36.01669,0</coordinates>
            </Point>
        </Placemark>
        <Placemark>
            <name>Giroux Mine</name>
            <styleUrl>#defaultStyleMap</styleUrl>
            <Point>
                <altitudeMode>relativeToGround</altitudeMode>
                <coordinates>-117.5834,36.26717,0</coordinates>
            </Point>
        </Placemark>
        <Placemark>
            <name>Gold Basin Mine</name>
            <styleUrl>#defaultStyleMap</styleUrl>
            <Point>
                <altitudeMode>relativeToGround</altitudeMode>
                <coordinates>-117.5273,35.94278,0</coordinates>
            </Point>
        </Placemark>
        <Placemark>
            <name>Gold Bug</name>
            <styleUrl>#Past ProducerStyleMap</styleUrl>
            <Point>
                <altitudeMode>relativeToGround</altitudeMode>
                <coordinates>-117.16009,36.02188,0</coordinates>
            </Point>
        </Placemark>
        <Placemark>
            <name>Gold Bug Mine</name>
            <styleUrl>#Past ProducerStyleMap</styleUrl>
            <Point>
                <altitudeMode>relativeToGround</altitudeMode>
                <coordinates>-117.93532,36.74166,0</coordinates>
            </Point>
        </Placemark>
        <Placemark>
            <name>Golden Rod Mine</name>
            <styleUrl>#defaultStyleMap</styleUrl>
            <Point>
                <altitudeMode>relativeToGround</altitudeMode>
                <coordinates>-117.6195,36.16077,0</coordinates>
            </Point>
        </Placemark>
        <Placemark>
            <name>Gold Mine</name>
            <styleUrl>#defaultStyleMap</styleUrl>
            <Point>
                <altitudeMode>relativeToGround</altitudeMode>
                <coordinates>-117.12899,36.07498,0</coordinates>
            </Point>
        </Placemark>
        <Placemark>
            <name>Gold Standard Mine</name>
            <styleUrl>#Past ProducerStyleMap</styleUrl>
            <Point>
                <altitudeMode>relativeToGround</altitudeMode>
                <coordinates>-117.86032,36.68386,0</coordinates>
            </Point>
        </Placemark>
        <Placemark>
            <name>Gold Tooth Mine</name>
            <styleUrl>#defaultStyleMap</styleUrl>
            <Point>
                <altitudeMode>relativeToGround</altitudeMode>
                <coordinates>-117.18479,35.92918,0</coordinates>
            </Point>
        </Placemark>
        <Placemark>
            <name>Good Luck Mine</name>
            <styleUrl>#defaultStyleMap</styleUrl>
            <Point>
                <altitudeMode>relativeToGround</altitudeMode>
                <coordinates>-118.36403,37.11825,0</coordinates>
            </Point>
        </Placemark>
        <Placemark>
            <name>Gower Gulch Mine</name>
            <styleUrl>#Past ProducerStyleMap</styleUrl>
            <Point>
                <altitudeMode>relativeToGround</altitudeMode>
                <coordinates>-116.82008,36.41607,0</coordinates>
            </Point>
        </Placemark>
        <Placemark>
            <name>Grand View Mine</name>
            <styleUrl>#Past ProducerStyleMap</styleUrl>
            <Point>
                <altitudeMode>relativeToGround</altitudeMode>
                <coordinates>-116.67338,36.30608,0</coordinates>
            </Point>
        </Placemark>
        <Placemark>
            <name>Gray Eagle Mine</name>
            <styleUrl>#Past ProducerStyleMap</styleUrl>
            <Point>
                <altitudeMode>relativeToGround</altitudeMode>
                <coordinates>-118.24343,37.34824,0</coordinates>
            </Point>
        </Placemark>
        <Placemark>
            <name>Grey Eagle Talc Mine</name>
            <styleUrl>#Past ProducerStyleMap</styleUrl>
            <Point>
                <altitudeMode>relativeToGround</altitudeMode>
                <coordinates>-117.92592,36.82856,0</coordinates>
            </Point>
        </Placemark>
        <Placemark>
            <name>Gunsite</name>
            <styleUrl>#Past ProducerStyleMap</styleUrl>
            <Point>
                <altitudeMode>relativeToGround</altitudeMode>
                <coordinates>-116.12446,35.84829,0</coordinates>
            </Point>
        </Placemark>
        <Placemark>
            <name>Gunter Canyon Barite Mine</name>
            <styleUrl>#Past ProducerStyleMap</styleUrl>
            <Point>
                <altitudeMode>relativeToGround</altitudeMode>
                <coordinates>-118.28404,37.46574,0</coordinates>
            </Point>
        </Placemark>
        <Placemark>
            <name>Hanging Valley Mine</name>
            <styleUrl>#Past ProducerStyleMap</styleUrl>
            <Point>
                <altitudeMode>relativeToGround</altitudeMode>
                <coordinates>-118.67595,37.32774,0</coordinates>
            </Point>
        </Placemark>
        <Placemark>
            <name>Hayward Mine</name>
            <styleUrl>#defaultStyleMap</styleUrl>
            <Point>
                <altitudeMode>relativeToGround</altitudeMode>
                <coordinates>-117.5751,36.27357,0</coordinates>
            </Point>
        </Placemark>
        <Placemark>
            <name>Highland Chief Mine</name>
            <styleUrl>#defaultStyleMap</styleUrl>
            <Point>
                <altitudeMode>relativeToGround</altitudeMode>
                <coordinates>-117.92812,36.70916,0</coordinates>
            </Point>
        </Placemark>
        <Placemark>
            <name>Honolulu-Big Horn Mine</name>
            <styleUrl>#Past ProducerStyleMap</styleUrl>
            <Point>
                <altitudeMode>relativeToGround</altitudeMode>
                <coordinates>-117.15529,35.99078,0</coordinates>
            </Point>
        </Placemark>
        <Placemark>
            <name>Hope Mine</name>
            <styleUrl>#Past ProducerStyleMap</styleUrl>
            <Point>
                <altitudeMode>relativeToGround</altitudeMode>
                <coordinates>-117.97982,36.70746,0</coordinates>
            </Point>
        </Placemark>
        <Placemark>
            <name>Horn Spoon Mine</name>
            <styleUrl>#Past ProducerStyleMap</styleUrl>
            <Point>
                <altitudeMode>relativeToGround</altitudeMode>
                <coordinates>-117.11029,36.17558,0</coordinates>
            </Point>
        </Placemark>
        <Placemark>
            <name>Horseshoe Mine</name>
            <styleUrl>#Past ProducerStyleMap</styleUrl>
            <Point>
                <altitudeMode>relativeToGround</altitudeMode>
                <coordinates>-117.91652,36.69806,0</coordinates>
            </Point>
        </Placemark>
        <Placemark>
            <name>Ibex Mine Arcturus</name>
            <styleUrl>#Past ProducerStyleMap</styleUrl>
            <Point>
                <altitudeMode>relativeToGround</altitudeMode>
                <coordinates>-116.45477,35.80829,0</coordinates>
            </Point>
        </Placemark>
        <Placemark>
            <name>Inyo Gold Mine</name>
            <styleUrl>#defaultStyleMap</styleUrl>
            <Point>
                <altitudeMode>relativeToGround</altitudeMode>
                <coordinates>-116.70148,36.49667,0</coordinates>
            </Point>
        </Placemark>
        <Placemark>
            <name>Irons Property</name>
            <styleUrl>#Past ProducerStyleMap</styleUrl>
            <Point>
                <altitudeMode>relativeToGround</altitudeMode>
                <coordinates>-118.64785,37.35554,0</coordinates>
            </Point>
        </Placemark>
        <Placemark>
            <name>Jack Henry Mine</name>
            <styleUrl>#defaultStyleMap</styleUrl>
            <Point>
                <altitudeMode>relativeToGround</altitudeMode>
                <coordinates>-117.88261,36.15807,0</coordinates>
            </Point>
        </Placemark>
        <Placemark>
            <name>Jackrabbit Tungsten Mine</name>
            <styleUrl>#Past ProducerStyleMap</styleUrl>
            <Point>
                <altitudeMode>relativeToGround</altitudeMode>
                <coordinates>-118.52784,37.35434,0</coordinates>
            </Point>
        </Placemark>
        <Placemark>
            <name>Jim Francis</name>
            <styleUrl>#Past ProducerStyleMap</styleUrl>
            <Point>
                <altitudeMode>relativeToGround</altitudeMode>
                <coordinates>-116.38477,35.81889,0</coordinates>
            </Point>
        </Placemark>
        <Placemark>
            <name>J. L. Osborne Mine</name>
            <styleUrl>#defaultStyleMap</styleUrl>
            <Point>
                <altitudeMode>relativeToGround</altitudeMode>
                <coordinates>-117.3612,36.27827,0</coordinates>
            </Point>
        </Placemark>
        <Placemark>
            <name>Johny Mine</name>
            <styleUrl>#Past ProducerStyleMap</styleUrl>
            <Point>
                <altitudeMode>relativeToGround</altitudeMode>
                <coordinates>-117.94262,36.75776,0</coordinates>
            </Point>
        </Placemark>
        <Placemark>
            <name>Kaolin Mine</name>
            <styleUrl>#defaultStyleMap</styleUrl>
            <Point>
                <altitudeMode>relativeToGround</altitudeMode>
                <coordinates>-116.52418,36.39938,0</coordinates>
            </Point>
        </Placemark>
        <Placemark>
            <name>Keynot Mine</name>
            <styleUrl>#PlantStyleMap</styleUrl>
            <Point>
                <altitudeMode>relativeToGround</altitudeMode>
                <coordinates>-117.93592,36.72136,0</coordinates>
            </Point>
        </Placemark>
        <Placemark>
            <name>Keynot No. 30 Mine</name>
            <styleUrl>#PlantStyleMap</styleUrl>
            <Point>
                <altitudeMode>relativeToGround</altitudeMode>
                <coordinates>-117.93782,36.71606,0</coordinates>
            </Point>
        </Placemark>
        <Placemark>
            <name>Keys Mine</name>
            <styleUrl>#Past ProducerStyleMap</styleUrl>
            <Point>
                <altitudeMode>relativeToGround</altitudeMode>
                <coordinates>-117.96512,36.77496,0</coordinates>
            </Point>
        </Placemark>
        <Placemark>
            <name>Keystone Gold Mine #1</name>
            <styleUrl>#ProducerStyleMap</styleUrl>
            <Point>
                <altitudeMode>relativeToGround</altitudeMode>
                <coordinates>-117.12979,35.84388,0</coordinates>
            </Point>
        </Placemark>
        <Placemark>
            <name>Keystone Gold Mine #2</name>
            <styleUrl>#ProducerStyleMap</styleUrl>
            <Point>
                <altitudeMode>relativeToGround</altitudeMode>
                <coordinates>-117.11869,35.85888,0</coordinates>
            </Point>
        </Placemark>
        <Placemark>
            <name>Keystone Mine</name>
            <styleUrl>#Past ProducerStyleMap</styleUrl>
            <Point>
                <altitudeMode>relativeToGround</altitudeMode>
                <coordinates>-117.12979,35.84388,0</coordinates>
            </Point>
        </Placemark>
        <Placemark>
            <name>Keystone Mine</name>
            <styleUrl>#Past ProducerStyleMap</styleUrl>
            <Point>
                <altitudeMode>relativeToGround</altitudeMode>
                <coordinates>-117.5653,36.26077,0</coordinates>
            </Point>
        </Placemark>
        <Placemark>
            <name>Kopper King Mine</name>
            <styleUrl>#defaultStyleMap</styleUrl>
            <Point>
                <altitudeMode>relativeToGround</altitudeMode>
                <coordinates>-117.4184,36.05218,0</coordinates>
            </Point>
        </Placemark>
        <Placemark>
            <name>Lakeview</name>
            <styleUrl>#Past ProducerStyleMap</styleUrl>
            <Point>
                <altitudeMode>relativeToGround</altitudeMode>
                <coordinates>-118.68985,37.33184,0</coordinates>
            </Point>
        </Placemark>
        <Placemark>
            <name>Lakeview Quarries</name>
            <styleUrl>#Past ProducerStyleMap</styleUrl>
            <Point>
                <altitudeMode>relativeToGround</altitudeMode>
                <coordinates>-117.95422,36.57496,0</coordinates>
            </Point>
        </Placemark>
        <Placemark>
            <name>Lane Mine</name>
            <styleUrl>#Past ProducerStyleMap</styleUrl>
            <Point>
                <altitudeMode>relativeToGround</altitudeMode>
                <coordinates>-117.5731,36.27917,0</coordinates>
            </Point>
        </Placemark>
        <Placemark>
            <name>Laura Mine</name>
            <styleUrl>#Past ProducerStyleMap</styleUrl>
            <Point>
                <altitudeMode>relativeToGround</altitudeMode>
                <coordinates>-117.92342,36.75056,0</coordinates>
            </Point>
        </Placemark>
        <Placemark>
            <name>Lead Mine</name>
            <styleUrl>#Past ProducerStyleMap</styleUrl>
            <Point>
                <altitudeMode>relativeToGround</altitudeMode>
                <coordinates>-117.4356,36.24857,0</coordinates>
            </Point>
        </Placemark>
        <Placemark>
            <name>Leary Mine</name>
            <styleUrl>#Past ProducerStyleMap</styleUrl>
            <Point>
                <altitudeMode>relativeToGround</altitudeMode>
                <coordinates>-117.90422,36.52806,0</coordinates>
            </Point>
        </Placemark>
        <Placemark>
            <name>Lee Mine</name>
            <styleUrl>#Past ProducerStyleMap</styleUrl>
            <Point>
                <altitudeMode>relativeToGround</altitudeMode>
                <coordinates>-117.61171,36.43997,0</coordinates>
            </Point>
        </Placemark>
        <Placemark>
            <name>Lestro Mountain Mine</name>
            <styleUrl>#Past ProducerStyleMap</styleUrl>
            <Point>
                <altitudeMode>relativeToGround</altitudeMode>
                <coordinates>-117.13419,35.87218,0</coordinates>
            </Point>
        </Placemark>
        <Placemark>
            <name>Lila C Mine</name>
            <styleUrl>#Past ProducerStyleMap</styleUrl>
            <Point>
                <altitudeMode>relativeToGround</altitudeMode>
                <coordinates>-116.49807,36.23938,0</coordinates>
            </Point>
        </Placemark>
        <Placemark>
            <name>Lillie Mine</name>
            <styleUrl>#defaultStyleMap</styleUrl>
            <Point>
                <altitudeMode>relativeToGround</altitudeMode>
                <coordinates>-117.28809,35.80558,0</coordinates>
            </Point>
        </Placemark>
        <Placemark>
            <name>Lincoln Mine</name>
            <styleUrl>#defaultStyleMap</styleUrl>
            <Point>
                <altitudeMode>relativeToGround</altitudeMode>
                <coordinates>-117.89983,37.41935,0</coordinates>
            </Point>
        </Placemark>
        <Placemark>
            <name>Lippincott Lead Mine</name>
            <styleUrl>#Past ProducerStyleMap</styleUrl>
            <Point>
                <altitudeMode>relativeToGround</altitudeMode>
                <coordinates>-117.58261,36.63436,0</coordinates>
            </Point>
        </Placemark>
        <Placemark>
            <name>Little Sister</name>
            <styleUrl>#Past ProducerStyleMap</styleUrl>
            <Point>
                <altitudeMode>relativeToGround</altitudeMode>
                <coordinates>-118.53064,37.34714,0</coordinates>
            </Point>
        </Placemark>
        <Placemark>
            <name>Lone Chair Prospect</name>
            <styleUrl>#defaultStyleMap</styleUrl>
            <Point>
                <altitudeMode>relativeToGround</altitudeMode>
                <coordinates>-118.20673,37.28805,0</coordinates>
            </Point>
        </Placemark>
        <Placemark>
            <name>Lost Burro Mine</name>
            <styleUrl>#defaultStyleMap</styleUrl>
            <Point>
                <altitudeMode>relativeToGround</altitudeMode>
                <coordinates>-117.52281,36.72436,0</coordinates>
            </Point>
        </Placemark>
        <Placemark>
            <name>Lotus Mine</name>
            <styleUrl>#Past ProducerStyleMap</styleUrl>
            <Point>
                <altitudeMode>relativeToGround</altitudeMode>
                <coordinates>-117.11729,35.86028,0</coordinates>
            </Point>
        </Placemark>
        <Placemark>
            <name>Lucky Bill Mine</name>
            <styleUrl>#defaultStyleMap</styleUrl>
            <Point>
                <altitudeMode>relativeToGround</altitudeMode>
                <coordinates>-118.67515,37.39824,0</coordinates>
            </Point>
        </Placemark>
        <Placemark>
            <name>Lucky Jim Mine</name>
            <styleUrl>#Past ProducerStyleMap</styleUrl>
            <Point>
                <altitudeMode>relativeToGround</altitudeMode>
                <coordinates>-117.5953,36.30917,0</coordinates>
            </Point>
        </Placemark>
        <Placemark>
            <name>Lucky Red Mine</name>
            <styleUrl>#defaultStyleMap</styleUrl>
            <Point>
                <altitudeMode>relativeToGround</altitudeMode>
                <coordinates>-117.6315,36.09558,0</coordinates>
            </Point>
        </Placemark>
        <Placemark>
            <name>Lucky Strike Mine</name>
            <styleUrl>#defaultStyleMap</styleUrl>
            <Point>
                <altitudeMode>relativeToGround</altitudeMode>
                <coordinates>-118.53784,37.34804,0</coordinates>
            </Point>
        </Placemark>
        <Placemark>
            <name>Luella Mine</name>
            <styleUrl>#defaultStyleMap</styleUrl>
            <Point>
                <altitudeMode>relativeToGround</altitudeMode>
                <coordinates>-118.10312,36.66886,0</coordinates>
            </Point>
        </Placemark>
        <Placemark>
            <name>Mamie Mine</name>
            <styleUrl>#defaultStyleMap</styleUrl>
            <Point>
                <altitudeMode>relativeToGround</altitudeMode>
                <coordinates>-117.6659,36.19467,0</coordinates>
            </Point>
        </Placemark>
        <Placemark>
            <name>Mammoth Mine</name>
            <styleUrl>#defaultStyleMap</styleUrl>
            <Point>
                <altitudeMode>relativeToGround</altitudeMode>
                <coordinates>-117.5337,35.95138,0</coordinates>
            </Point>
        </Placemark>
        <Placemark>
            <name>Mammoth Mine</name>
            <styleUrl>#Past ProducerStyleMap</styleUrl>
            <Point>
                <altitudeMode>relativeToGround</altitudeMode>
                <coordinates>-116.91648,36.01498,0</coordinates>
            </Point>
        </Placemark>
        <Placemark>
            <name>Mano Del Hombre Mine</name>
            <styleUrl>#Past ProducerStyleMap</styleUrl>
            <Point>
                <altitudeMode>relativeToGround</altitudeMode>
                <coordinates>-117.90922,36.71186,0</coordinates>
            </Point>
        </Placemark>
        <Placemark>
            <name>Mano Del Hombre Segundo Mine</name>
            <styleUrl>#Past ProducerStyleMap</styleUrl>
            <Point>
                <altitudeMode>relativeToGround</altitudeMode>
                <coordinates>-117.90652,36.71106,0</coordinates>
            </Point>
        </Placemark>
        <Placemark>
            <name>Marble</name>
            <styleUrl>#Past ProducerStyleMap</styleUrl>
            <Point>
                <altitudeMode>relativeToGround</altitudeMode>
                <coordinates>-118.39204,37.20715,0</coordinates>
            </Point>
        </Placemark>
        <Placemark>
            <name>Maria Mine</name>
            <styleUrl>#Past ProducerStyleMap</styleUrl>
            <Point>
                <altitudeMode>relativeToGround</altitudeMode>
                <coordinates>-116.54528,36.24028,0</coordinates>
            </Point>
        </Placemark>
        <Placemark>
            <name>May Mine</name>
            <styleUrl>#defaultStyleMap</styleUrl>
            <Point>
                <altitudeMode>relativeToGround</altitudeMode>
                <coordinates>-118.30453,37.05465,0</coordinates>
            </Point>
        </Placemark>
        <Placemark>
            <name>Mccloud Mine</name>
            <styleUrl>#defaultStyleMap</styleUrl>
            <Point>
                <altitudeMode>relativeToGround</altitudeMode>
                <coordinates>-117.88261,36.15077,0</coordinates>
            </Point>
        </Placemark>
        <Placemark>
            <name>Mineral Hill</name>
            <styleUrl>#Past ProducerStyleMap</styleUrl>
            <Point>
                <altitudeMode>relativeToGround</altitudeMode>
                <coordinates>-117.94125,37.22474,0</coordinates>
            </Point>
        </Placemark>
        <Placemark>
            <name>Mirage-Mariposa Mine</name>
            <styleUrl>#Past ProducerStyleMap</styleUrl>
            <Point>
                <altitudeMode>relativeToGround</altitudeMode>
                <coordinates>-118.25373,37.34804,0</coordinates>
            </Point>
        </Placemark>
        <Placemark>
            <name>Mister Mine</name>
            <styleUrl>#Past ProducerStyleMap</styleUrl>
            <Point>
                <altitudeMode>relativeToGround</altitudeMode>
                <coordinates>-116.50087,35.90669,0</coordinates>
            </Point>
        </Placemark>
        <Placemark>
            <name>Modoc Mine</name>
            <styleUrl>#Past ProducerStyleMap</styleUrl>
            <Point>
                <altitudeMode>relativeToGround</altitudeMode>
                <coordinates>-117.4256,36.24417,0</coordinates>
            </Point>
        </Placemark>
        <Placemark>
            <name>Mollie Gibson Mine</name>
            <styleUrl>#Past ProducerStyleMap</styleUrl>
            <Point>
                <altitudeMode>relativeToGround</altitudeMode>
                <coordinates>-118.14423,37.34305,0</coordinates>
            </Point>
        </Placemark>
        <Placemark>
            <name>Molybdenum Mine</name>
            <styleUrl>#defaultStyleMap</styleUrl>
            <Point>
                <altitudeMode>relativeToGround</altitudeMode>
                <coordinates>-117.85201,36.13827,0</coordinates>
            </Point>
        </Placemark>
        <Placemark>
            <name>Monarch Mine</name>
            <styleUrl>#Past ProducerStyleMap</styleUrl>
            <Point>
                <altitudeMode>relativeToGround</altitudeMode>
                <coordinates>-117.52841,36.59137,0</coordinates>
            </Point>
        </Placemark>
        <Placemark>
            <name>Montezuma Mine</name>
            <styleUrl>#Past ProducerStyleMap</styleUrl>
            <Point>
                <altitudeMode>relativeToGround</altitudeMode>
                <coordinates>-118.19173,37.09025,0</coordinates>
            </Point>
        </Placemark>
        <Placemark>
            <name>Montgomery Talc Mine</name>
            <styleUrl>#Past ProducerStyleMap</styleUrl>
            <Point>
                <altitudeMode>relativeToGround</altitudeMode>
                <coordinates>-116.98418,35.92078,0</coordinates>
            </Point>
        </Placemark>
        <Placemark>
            <name>Moonlight Mine</name>
            <styleUrl>#Past ProducerStyleMap</styleUrl>
            <Point>
                <altitudeMode>relativeToGround</altitudeMode>
                <coordinates>-118.52654,37.34414,0</coordinates>
            </Point>
        </Placemark>
        <Placemark>
            <name>Morning Star Mine</name>
            <styleUrl>#Past ProducerStyleMap</styleUrl>
            <Point>
                <altitudeMode>relativeToGround</altitudeMode>
                <coordinates>-117.79511,36.52496,0</coordinates>
            </Point>
        </Placemark>
        <Placemark>
            <name>Morning Star Mine</name>
            <styleUrl>#Past ProducerStyleMap</styleUrl>
            <Point>
                <altitudeMode>relativeToGround</altitudeMode>
                <coordinates>-117.91232,37.01385,0</coordinates>
            </Point>
        </Placemark>
        <Placemark>
            <name>Mountain Girl</name>
            <styleUrl>#Past ProducerStyleMap</styleUrl>
            <Point>
                <altitudeMode>relativeToGround</altitudeMode>
                <coordinates>-117.07619,36.04938,0</coordinates>
            </Point>
        </Placemark>
        <Placemark>
            <name>Mount Tom Talc Mine</name>
            <styleUrl>#Past ProducerStyleMap</styleUrl>
            <Point>
                <altitudeMode>relativeToGround</altitudeMode>
                <coordinates>-118.61704,37.36324,0</coordinates>
            </Point>
        </Placemark>
        <Placemark>
            <name>Munsinger</name>
            <styleUrl>#defaultStyleMap</styleUrl>
            <Point>
                <altitudeMode>relativeToGround</altitudeMode>
                <coordinates>-118.50174,37.23274,0</coordinates>
            </Point>
        </Placemark>
        <Placemark>
            <name>Ninemile Canyon Feldspar Mine</name>
            <styleUrl>#Past ProducerStyleMap</styleUrl>
            <Point>
                <altitudeMode>relativeToGround</altitudeMode>
                <coordinates>-117.95511,35.84168,0</coordinates>
            </Point>
        </Placemark>
        <Placemark>
            <name>No. 18 Mine</name>
            <styleUrl>#Past ProducerStyleMap</styleUrl>
            <Point>
                <altitudeMode>relativeToGround</altitudeMode>
                <coordinates>-117.91762,36.73966,0</coordinates>
            </Point>
        </Placemark>
        <Placemark>
            <name>No. 32 Mine</name>
            <styleUrl>#Past ProducerStyleMap</styleUrl>
            <Point>
                <altitudeMode>relativeToGround</altitudeMode>
                <coordinates>-117.91762,36.71526,0</coordinates>
            </Point>
        </Placemark>
        <Placemark>
            <name>No. 35 Mine</name>
            <styleUrl>#Past ProducerStyleMap</styleUrl>
            <Point>
                <altitudeMode>relativeToGround</altitudeMode>
                <coordinates>-117.91202,36.72416,0</coordinates>
            </Point>
        </Placemark>
        <Placemark>
            <name>Noonday</name>
            <styleUrl>#Past ProducerStyleMap</styleUrl>
            <Point>
                <altitudeMode>relativeToGround</altitudeMode>
                <coordinates>-116.09696,35.82889,0</coordinates>
            </Point>
        </Placemark>
        <Placemark>
            <name>Nopah Group</name>
            <styleUrl>#Past ProducerStyleMap</styleUrl>
            <Point>
                <altitudeMode>relativeToGround</altitudeMode>
                <coordinates>-116.15196,36.12809,0</coordinates>
            </Point>
        </Placemark>
        <Placemark>
            <name>O. B. Joyful Mine</name>
            <styleUrl>#Past ProducerStyleMap</styleUrl>
            <Point>
                <altitudeMode>relativeToGround</altitudeMode>
                <coordinates>-117.21399,36.20828,0</coordinates>
            </Point>
        </Placemark>
        <Placemark>
            <name>O'Brien Canyon</name>
            <styleUrl>#defaultStyleMap</styleUrl>
            <Point>
                <altitudeMode>relativeToGround</altitudeMode>
                <coordinates>-116.78198,36.38418,0</coordinates>
            </Point>
        </Placemark>
        <Placemark>
            <name>Old Dependable Antimony Mine</name>
            <styleUrl>#Past ProducerStyleMap</styleUrl>
            <Point>
                <altitudeMode>relativeToGround</altitudeMode>
                <coordinates>-117.05059,36.27578,0</coordinates>
            </Point>
        </Placemark>
        <Placemark>
            <name>Old Whiteside Diggings</name>
            <styleUrl>#defaultStyleMap</styleUrl>
            <Point>
                <altitudeMode>relativeToGround</altitudeMode>
                <coordinates>-118.08012,36.83526,0</coordinates>
            </Point>
        </Placemark>
        <Placemark>
            <name>Olympic Mine</name>
            <styleUrl>#defaultStyleMap</styleUrl>
            <Point>
                <altitudeMode>relativeToGround</altitudeMode>
                <coordinates>-117.5931,36.11078,0</coordinates>
            </Point>
        </Placemark>
        <Placemark>
            <name>Opal Mine</name>
            <styleUrl>#defaultStyleMap</styleUrl>
            <Point>
                <altitudeMode>relativeToGround</altitudeMode>
                <coordinates>-117.99812,37.06885,0</coordinates>
            </Point>
        </Placemark>
        <Placemark>
            <name>Ophir Mine</name>
            <styleUrl>#Past ProducerStyleMap</styleUrl>
            <Point>
                <altitudeMode>relativeToGround</altitudeMode>
                <coordinates>-117.28259,35.83328,0</coordinates>
            </Point>
        </Placemark>
        <Placemark>
            <name>Oro Fino</name>
            <styleUrl>#Past ProducerStyleMap</styleUrl>
            <Point>
                <altitudeMode>relativeToGround</altitudeMode>
                <coordinates>-116.09276,35.82579,0</coordinates>
            </Point>
        </Placemark>
        <Placemark>
            <name>Panament View Mine</name>
            <styleUrl>#Past ProducerStyleMap</styleUrl>
            <Point>
                <altitudeMode>relativeToGround</altitudeMode>
                <coordinates>-117.94012,36.70966,0</coordinates>
            </Point>
        </Placemark>
        <Placemark>
            <name>Panamint Mines</name>
            <styleUrl>#Past ProducerStyleMap</styleUrl>
            <Point>
                <altitudeMode>relativeToGround</altitudeMode>
                <coordinates>-117.09809,36.11578,0</coordinates>
            </Point>
        </Placemark>
        <Placemark>
            <name>Pennsylvania</name>
            <styleUrl>#Past ProducerStyleMap</styleUrl>
            <Point>
                <altitudeMode>relativeToGround</altitudeMode>
                <coordinates>-117.91122,36.53996,0</coordinates>
            </Point>
        </Placemark>
        <Placemark>
            <name>Pickup Mine</name>
            <styleUrl>#defaultStyleMap</styleUrl>
            <Point>
                <altitudeMode>relativeToGround</altitudeMode>
                <coordinates>-118.47454,37.30324,0</coordinates>
            </Point>
        </Placemark>
        <Placemark>
            <name>Pine Creek Tungsten Mine &amp; Mill</name>
            <styleUrl>#PlantStyleMap</styleUrl>
            <Point>
                <altitudeMode>relativeToGround</altitudeMode>
                <coordinates>-118.70425,37.36164,0</coordinates>
            </Point>
        </Placemark>
        <Placemark>
            <name>Played Out Mine</name>
            <styleUrl>#Past ProducerStyleMap</styleUrl>
            <Point>
                <altitudeMode>relativeToGround</altitudeMode>
                <coordinates>-116.65698,36.33748,0</coordinates>
            </Point>
        </Placemark>
        <Placemark>
            <name>Promontory Mine</name>
            <styleUrl>#Past ProducerStyleMap</styleUrl>
            <Point>
                <altitudeMode>relativeToGround</altitudeMode>
                <coordinates>-117.5737,36.25687,0</coordinates>
            </Point>
        </Placemark>
        <Placemark>
            <name>Ratcliff Mine</name>
            <styleUrl>#Past ProducerStyleMap</styleUrl>
            <Point>
                <altitudeMode>relativeToGround</altitudeMode>
                <coordinates>-117.13479,36.03328,0</coordinates>
            </Point>
        </Placemark>
        <Placemark>
            <name>Red Dog Mine</name>
            <styleUrl>#Past ProducerStyleMap</styleUrl>
            <Point>
                <altitudeMode>relativeToGround</altitudeMode>
                <coordinates>-117.91092,36.73776,0</coordinates>
            </Point>
        </Placemark>
        <Placemark>
            <name>Red Mexican Mine</name>
            <styleUrl>#Past ProducerStyleMap</styleUrl>
            <Point>
                <altitudeMode>relativeToGround</altitudeMode>
                <coordinates>-117.69311,36.15827,0</coordinates>
            </Point>
        </Placemark>
        <Placemark>
            <name>Reed Flat Mine</name>
            <styleUrl>#Past ProducerStyleMap</styleUrl>
            <Point>
                <altitudeMode>relativeToGround</altitudeMode>
                <coordinates>-118.18173,37.38054,0</coordinates>
            </Point>
        </Placemark>
        <Placemark>
            <name>Rock Roof Mine</name>
            <styleUrl>#Past ProducerStyleMap</styleUrl>
            <Point>
                <altitudeMode>relativeToGround</altitudeMode>
                <coordinates>-117.94122,36.73686,0</coordinates>
            </Point>
        </Placemark>
        <Placemark>
            <name>Rose Mine</name>
            <styleUrl>#defaultStyleMap</styleUrl>
            <Point>
                <altitudeMode>relativeToGround</altitudeMode>
                <coordinates>-118.29783,37.05435,0</coordinates>
            </Point>
        </Placemark>
        <Placemark>
            <name>Rossi</name>
            <styleUrl>#Past ProducerStyleMap</styleUrl>
            <Point>
                <altitudeMode>relativeToGround</altitudeMode>
                <coordinates>-118.40534,37.31774,0</coordinates>
            </Point>
        </Placemark>
        <Placemark>
            <name>Round Valley Mine</name>
            <styleUrl>#Past ProducerStyleMap</styleUrl>
            <Point>
                <altitudeMode>relativeToGround</altitudeMode>
                <coordinates>-118.55514,37.37854,0</coordinates>
            </Point>
        </Placemark>
        <Placemark>
            <name>Ruiz Mine</name>
            <styleUrl>#Past ProducerStyleMap</styleUrl>
            <Point>
                <altitudeMode>relativeToGround</altitudeMode>
                <coordinates>-117.63401,36.32277,0</coordinates>
            </Point>
        </Placemark>
        <Placemark>
            <name>Saddlerock Mine</name>
            <styleUrl>#defaultStyleMap</styleUrl>
            <Point>
                <altitudeMode>relativeToGround</altitudeMode>
                <coordinates>-117.16809,36.41357,0</coordinates>
            </Point>
        </Placemark>
        <Placemark>
            <name>Santa Ana Mine</name>
            <styleUrl>#defaultStyleMap</styleUrl>
            <Point>
                <altitudeMode>relativeToGround</altitudeMode>
                <coordinates>-117.5781,36.27937,0</coordinates>
            </Point>
        </Placemark>
        <Placemark>
            <name>Santa Cruz Mine</name>
            <styleUrl>#defaultStyleMap</styleUrl>
            <Point>
                <altitudeMode>relativeToGround</altitudeMode>
                <coordinates>-117.78401,36.57746,0</coordinates>
            </Point>
        </Placemark>
        <Placemark>
            <name>Sardine</name>
            <styleUrl>#Past ProducerStyleMap</styleUrl>
            <Point>
                <altitudeMode>relativeToGround</altitudeMode>
                <coordinates>-117.53811,36.63996,0</coordinates>
            </Point>
        </Placemark>
        <Placemark>
            <name>Senator Mine</name>
            <styleUrl>#defaultStyleMap</styleUrl>
            <Point>
                <altitudeMode>relativeToGround</altitudeMode>
                <coordinates>-118.16953,36.93935,0</coordinates>
            </Point>
        </Placemark>
        <Placemark>
            <name>Sentinel Peak Mines</name>
            <styleUrl>#Past ProducerStyleMap</styleUrl>
            <Point>
                <altitudeMode>relativeToGround</altitudeMode>
                <coordinates>-117.12279,36.09668,0</coordinates>
            </Point>
        </Placemark>
        <Placemark>
            <name>Sharp Mine</name>
            <styleUrl>#defaultStyleMap</styleUrl>
            <Point>
                <altitudeMode>relativeToGround</altitudeMode>
                <coordinates>-118.10902,36.67686,0</coordinates>
            </Point>
        </Placemark>
        <Placemark>
            <name>Shorty Harris Mine</name>
            <styleUrl>#Past ProducerStyleMap</styleUrl>
            <Point>
                <altitudeMode>relativeToGround</altitudeMode>
                <coordinates>-117.54871,36.64996,0</coordinates>
            </Point>
        </Placemark>
        <Placemark>
            <name>Shoshone Mines</name>
            <styleUrl>#Past ProducerStyleMap</styleUrl>
            <Point>
                <altitudeMode>relativeToGround</altitudeMode>
                <coordinates>-116.10306,35.80919,0</coordinates>
            </Point>
        </Placemark>
        <Placemark>
            <name>Side Hill Clay</name>
            <styleUrl>#Past ProducerStyleMap</styleUrl>
            <Point>
                <altitudeMode>relativeToGround</altitudeMode>
                <coordinates>-116.31757,36.37998,0</coordinates>
            </Point>
        </Placemark>
        <Placemark>
            <name>Sidehill Mine</name>
            <styleUrl>#Past ProducerStyleMap</styleUrl>
            <Point>
                <altitudeMode>relativeToGround</altitudeMode>
                <coordinates>-116.52338,36.30388,0</coordinates>
            </Point>
        </Placemark>
        <Placemark>
            <name>Silver King Mine</name>
            <styleUrl>#defaultStyleMap</styleUrl>
            <Point>
                <altitudeMode>relativeToGround</altitudeMode>
                <coordinates>-117.35809,35.86188,0</coordinates>
            </Point>
        </Placemark>
        <Placemark>
            <name>Silver Ridge No. 2 Mine</name>
            <styleUrl>#Past ProducerStyleMap</styleUrl>
            <Point>
                <altitudeMode>relativeToGround</altitudeMode>
                <coordinates>-117.89122,36.72526,0</coordinates>
            </Point>
        </Placemark>
        <Placemark>
            <name>Silver Spur</name>
            <styleUrl>#Past ProducerStyleMap</styleUrl>
            <Point>
                <altitudeMode>relativeToGround</altitudeMode>
                <coordinates>-118.00012,37.07055,0</coordinates>
            </Point>
        </Placemark>
        <Placemark>
            <name>Snowflake Talc Mine</name>
            <styleUrl>#Past ProducerStyleMap</styleUrl>
            <Point>
                <altitudeMode>relativeToGround</altitudeMode>
                <coordinates>-117.87812,36.72686,0</coordinates>
            </Point>
        </Placemark>
        <Placemark>
            <name>South Bend Mine</name>
            <styleUrl>#defaultStyleMap</styleUrl>
            <Point>
                <altitudeMode>relativeToGround</altitudeMode>
                <coordinates>-118.10813,37.40604,0</coordinates>
            </Point>
        </Placemark>
        <Placemark>
            <name>Southern Belle Mine</name>
            <styleUrl>#Past ProducerStyleMap</styleUrl>
            <Point>
                <altitudeMode>relativeToGround</altitudeMode>
                <coordinates>-118.31734,37.45994,0</coordinates>
            </Point>
        </Placemark>
        <Placemark>
            <name>Spring Mine</name>
            <styleUrl>#Past ProducerStyleMap</styleUrl>
            <Point>
                <altitudeMode>relativeToGround</altitudeMode>
                <coordinates>-117.86782,36.68886,0</coordinates>
            </Point>
        </Placemark>
        <Placemark>
            <name>Squaw Flat No. 1-4</name>
            <styleUrl>#Past ProducerStyleMap</styleUrl>
            <Point>
                <altitudeMode>relativeToGround</altitudeMode>
                <coordinates>-118.05903,37.05965,0</coordinates>
            </Point>
        </Placemark>
        <Placemark>
            <name>Squaw Mine</name>
            <styleUrl>#defaultStyleMap</styleUrl>
            <Point>
                <altitudeMode>relativeToGround</altitudeMode>
                <coordinates>-118.13623,36.98465,0</coordinates>
            </Point>
        </Placemark>
        <Placemark>
            <name>St. Charles Mine</name>
            <styleUrl>#Past ProducerStyleMap</styleUrl>
            <Point>
                <altitudeMode>relativeToGround</altitudeMode>
                <coordinates>-117.577,36.27437,0</coordinates>
            </Point>
        </Placemark>
        <Placemark>
            <name>St. Elmo Mine</name>
            <styleUrl>#defaultStyleMap</styleUrl>
            <Point>
                <altitudeMode>relativeToGround</altitudeMode>
                <coordinates>-117.78621,36.57856,0</coordinates>
            </Point>
        </Placemark>
        <Placemark>
            <name>Sterling Mine</name>
            <styleUrl>#Past ProducerStyleMap</styleUrl>
            <Point>
                <altitudeMode>relativeToGround</altitudeMode>
                <coordinates>-117.4209,36.14938,0</coordinates>
            </Point>
        </Placemark>
        <Placemark>
            <name>Stewart Wonder Mine</name>
            <styleUrl>#Past ProducerStyleMap</styleUrl>
            <Point>
                <altitudeMode>relativeToGround</altitudeMode>
                <coordinates>-117.10949,36.11888,0</coordinates>
            </Point>
        </Placemark>
        <Placemark>
            <name>St. George Mine</name>
            <styleUrl>#Past ProducerStyleMap</styleUrl>
            <Point>
                <altitudeMode>relativeToGround</altitudeMode>
                <coordinates>-117.4603,36.21387,0</coordinates>
            </Point>
        </Placemark>
        <Placemark>
            <name>Sunrise View Mine</name>
            <styleUrl>#Past ProducerStyleMap</styleUrl>
            <Point>
                <altitudeMode>relativeToGround</altitudeMode>
                <coordinates>-118.09732,36.65076,0</coordinates>
            </Point>
        </Placemark>
        <Placemark>
            <name>Sunset Mine</name>
            <styleUrl>#Past ProducerStyleMap</styleUrl>
            <Point>
                <altitudeMode>relativeToGround</altitudeMode>
                <coordinates>-117.14649,36.42137,0</coordinates>
            </Point>
        </Placemark>
        <Placemark>
            <name>Sweitzer Mine</name>
            <styleUrl>#Past ProducerStyleMap</styleUrl>
            <Point>
                <altitudeMode>relativeToGround</altitudeMode>
                <coordinates>-117.91702,36.73746,0</coordinates>
            </Point>
        </Placemark>
        <Placemark>
            <name>Sylvia Mine</name>
            <styleUrl>#Past ProducerStyleMap</styleUrl>
            <Point>
                <altitudeMode>relativeToGround</altitudeMode>
                <coordinates>-117.22919,36.21828,0</coordinates>
            </Point>
        </Placemark>
        <Placemark>
            <name>Talc City Mine</name>
            <styleUrl>#Past ProducerStyleMap</styleUrl>
            <Point>
                <altitudeMode>relativeToGround</altitudeMode>
                <coordinates>-117.66921,36.33327,0</coordinates>
            </Point>
        </Placemark>
        <Placemark>
            <name>Taylor-Mcelvoy Mine Area</name>
            <styleUrl>#Past ProducerStyleMap</styleUrl>
            <Point>
                <altitudeMode>relativeToGround</altitudeMode>
                <coordinates>-117.94172,36.74556,0</coordinates>
            </Point>
        </Placemark>
        <Placemark>
            <name>Toga Mine</name>
            <styleUrl>#defaultStyleMap</styleUrl>
            <Point>
                <altitudeMode>relativeToGround</altitudeMode>
                <coordinates>-117.5781,36.26917,0</coordinates>
            </Point>
        </Placemark>
        <Placemark>
            <name>Tombstone</name>
            <styleUrl>#defaultStyleMap</styleUrl>
            <Point>
                <altitudeMode>relativeToGround</altitudeMode>
                <coordinates>-118.29033,37.07915,0</coordinates>
            </Point>
        </Placemark>
        <Placemark>
            <name>Tom Casey Mine</name>
            <styleUrl>#defaultStyleMap</styleUrl>
            <Point>
                <altitudeMode>relativeToGround</altitudeMode>
                <coordinates>-117.95482,36.72576,0</coordinates>
            </Point>
        </Placemark>
        <Placemark>
            <name>Trapier Mine</name>
            <styleUrl>#Past ProducerStyleMap</styleUrl>
            <Point>
                <altitudeMode>relativeToGround</altitudeMode>
                <coordinates>-117.85482,36.64576,0</coordinates>
            </Point>
        </Placemark>
        <Placemark>
            <name>Treasure Hill Mine</name>
            <styleUrl>#Past ProducerStyleMap</styleUrl>
            <Point>
                <altitudeMode>relativeToGround</altitudeMode>
                <coordinates>-117.14419,36.43137,0</coordinates>
            </Point>
        </Placemark>
        <Placemark>
            <name>Trinity Claims</name>
            <styleUrl>#defaultStyleMap</styleUrl>
            <Point>
                <altitudeMode>relativeToGround</altitudeMode>
                <coordinates>-118.23153,37.29825,0</coordinates>
            </Point>
        </Placemark>
        <Placemark>
            <name>Trinity Mine</name>
            <styleUrl>#Past ProducerStyleMap</styleUrl>
            <Point>
                <altitudeMode>relativeToGround</altitudeMode>
                <coordinates>-117.68121,36.33497,0</coordinates>
            </Point>
        </Placemark>
        <Placemark>
            <name>Tucki Mine</name>
            <styleUrl>#Past ProducerStyleMap</styleUrl>
            <Point>
                <altitudeMode>relativeToGround</altitudeMode>
                <coordinates>-117.12369,36.48997,0</coordinates>
            </Point>
        </Placemark>
        <Placemark>
            <name>Tungstar Mine</name>
            <styleUrl>#Past ProducerStyleMap</styleUrl>
            <Point>
                <altitudeMode>relativeToGround</altitudeMode>
                <coordinates>-118.66595,37.33684,0</coordinates>
            </Point>
        </Placemark>
        <Placemark>
            <name>Tungsten Blue Mine</name>
            <styleUrl>#Past ProducerStyleMap</styleUrl>
            <Point>
                <altitudeMode>relativeToGround</altitudeMode>
                <coordinates>-118.52844,37.35774,0</coordinates>
            </Point>
        </Placemark>
        <Placemark>
            <name>Ubehebe Mine</name>
            <styleUrl>#Past ProducerStyleMap</styleUrl>
            <Point>
                <altitudeMode>relativeToGround</altitudeMode>
                <coordinates>-117.57921,36.74746,0</coordinates>
            </Point>
        </Placemark>
        <Placemark>
            <name>Union Mines</name>
            <styleUrl>#Past ProducerStyleMap</styleUrl>
            <Point>
                <altitudeMode>relativeToGround</altitudeMode>
                <coordinates>-116.87869,36.69387,0</coordinates>
            </Point>
        </Placemark>
        <Placemark>
            <name>Upper Biddy Mccarthy Mine</name>
            <styleUrl>#Past ProducerStyleMap</styleUrl>
            <Point>
                <altitudeMode>relativeToGround</altitudeMode>
                <coordinates>-116.68058,36.30828,0</coordinates>
            </Point>
        </Placemark>
        <Placemark>
            <name>Ventura</name>
            <styleUrl>#Past ProducerStyleMap</styleUrl>
            <Point>
                <altitudeMode>relativeToGround</altitudeMode>
                <coordinates>-117.80451,36.52806,0</coordinates>
            </Point>
        </Placemark>
        <Placemark>
            <name>Vin-Blanc Mine</name>
            <styleUrl>#defaultStyleMap</styleUrl>
            <Point>
                <altitudeMode>relativeToGround</altitudeMode>
                <coordinates>-117.6315,36.19167,0</coordinates>
            </Point>
        </Placemark>
        <Placemark>
            <name>Wacoba Tungsten Mine</name>
            <styleUrl>#Past ProducerStyleMap</styleUrl>
            <Point>
                <altitudeMode>relativeToGround</altitudeMode>
                <coordinates>-117.93872,36.97215,0</coordinates>
            </Point>
        </Placemark>
        <Placemark>
            <name>Wahoo Mine</name>
            <styleUrl>#Past ProducerStyleMap</styleUrl>
            <Point>
                <altitudeMode>relativeToGround</altitudeMode>
                <coordinates>-117.62621,36.36997,0</coordinates>
            </Point>
        </Placemark>
        <Placemark>
            <name>War Eagle</name>
            <styleUrl>#Past ProducerStyleMap</styleUrl>
            <Point>
                <altitudeMode>relativeToGround</altitudeMode>
                <coordinates>-116.09166,35.82079,0</coordinates>
            </Point>
        </Placemark>
        <Placemark>
            <name>Washington Mine</name>
            <styleUrl>#defaultStyleMap</styleUrl>
            <Point>
                <altitudeMode>relativeToGround</altitudeMode>
                <coordinates>-118.07872,36.60306,0</coordinates>
            </Point>
        </Placemark>
        <Placemark>
            <name>Western Tungsten Mine</name>
            <styleUrl>#Past ProducerStyleMap</styleUrl>
            <Point>
                <altitudeMode>relativeToGround</altitudeMode>
                <coordinates>-118.56174,37.37824,0</coordinates>
            </Point>
        </Placemark>
        <Placemark>
            <name>Westgard</name>
            <styleUrl>#Past ProducerStyleMap</styleUrl>
            <Point>
                <altitudeMode>relativeToGround</altitudeMode>
                <coordinates>-118.11153,37.34305,0</coordinates>
            </Point>
        </Placemark>
        <Placemark>
            <name>White Caps Mine</name>
            <styleUrl>#Past ProducerStyleMap</styleUrl>
            <Point>
                <altitudeMode>relativeToGround</altitudeMode>
                <coordinates>-118.52094,37.33884,0</coordinates>
            </Point>
        </Placemark>
        <Placemark>
            <name>White Eagle Talc Mine</name>
            <styleUrl>#Past ProducerStyleMap</styleUrl>
            <Point>
                <altitudeMode>relativeToGround</altitudeMode>
                <coordinates>-117.93312,36.83716,0</coordinates>
            </Point>
        </Placemark>
        <Placemark>
            <name>White Swan Mine</name>
            <styleUrl>#Past ProducerStyleMap</styleUrl>
            <Point>
                <altitudeMode>relativeToGround</altitudeMode>
                <coordinates>-117.72061,36.35557,0</coordinates>
            </Point>
        </Placemark>
        <Placemark>
            <name>Widow No. 3 Mine</name>
            <styleUrl>#defaultStyleMap</styleUrl>
            <Point>
                <altitudeMode>relativeToGround</altitudeMode>
                <coordinates>-116.66528,36.29808,0</coordinates>
            </Point>
        </Placemark>
        <Placemark>
            <name>Wild Rose Antimony Deposits</name>
            <styleUrl>#Past ProducerStyleMap</styleUrl>
            <Point>
                <altitudeMode>relativeToGround</altitudeMode>
                <coordinates>-117.16759,36.24058,0</coordinates>
            </Point>
        </Placemark>
        <Placemark>
            <name>Willow Creek Talc Mine</name>
            <styleUrl>#Past ProducerStyleMap</styleUrl>
            <Point>
                <altitudeMode>relativeToGround</altitudeMode>
                <coordinates>-117.95592,36.85326,0</coordinates>
            </Point>
        </Placemark>
        <Placemark>
            <name>Wyoming Mine</name>
            <styleUrl>#Past ProducerStyleMap</styleUrl>
            <Point>
                <altitudeMode>relativeToGround</altitudeMode>
                <coordinates>-117.09649,36.10938,0</coordinates>
            </Point>
        </Placemark>
        <Placemark>
            <name>X-Ray Mine</name>
            <styleUrl>#Past ProducerStyleMap</styleUrl>
            <Point>
                <altitudeMode>relativeToGround</altitudeMode>
                <coordinates>-118.24783,37.34994,0</coordinates>
            </Point>
        </Placemark>
        <Placemark>
            <name>Yaney Mine</name>
            <styleUrl>#Past ProducerStyleMap</styleUrl>
            <Point>
                <altitudeMode>relativeToGround</altitudeMode>
                <coordinates>-118.45874,37.32024,0</coordinates>
            </Point>
        </Placemark>


        <Style id="Producer_highlight">
            <IconStyle>
                <scale>1</scale>
                <Icon>
                    <href>http://maps.google.com/mapfiles/kml/paddle/ylw-blank.png</href>
                </Icon>
            </IconStyle>
            <LabelStyle>
                <color>ffffffff</color>
            </LabelStyle>
        </Style>
        <Style id="Producer_normal">
            <IconStyle>
                <scale>1</scale>
                <Icon>
                    <href>http://maps.google.com/mapfiles/kml/paddle/ylw-blank.png</href>
                </Icon>
            </IconStyle>
            <LabelStyle>
                <color>00ffffff</color>
            </LabelStyle>
        </Style>
        <StyleMap id="ProducerStyleMap">
            <Pair>
                <key>normal</key>
                <styleUrl>#Producer_normal</styleUrl>
            </Pair>
            <Pair>
                <key>highlight</key>
                <styleUrl>#Producer_highlight</styleUrl>
            </Pair>
        </StyleMap>
        <Style id="Past Producer_highlight">
            <IconStyle>
                <scale>1</scale>
                <Icon>
                    <href>http://maps.google.com/mapfiles/kml/paddle/ylw-blank.png</href>
                </Icon>
            </IconStyle>
            <LabelStyle>
                <color>ffffffff</color>
            </LabelStyle>
        </Style>
        <Style id="Past Producer_normal">
            <IconStyle>
                <scale>1</scale>
                <Icon>
                    <href>http://maps.google.com/mapfiles/kml/paddle/ylw-blank.png</href>
                </Icon>
            </IconStyle>
            <LabelStyle>
                <color>00ffffff</color>
            </LabelStyle>
        </Style>
        <StyleMap id="Past ProducerStyleMap">
            <Pair>
                <key>normal</key>
                <styleUrl>#Past Producer_normal</styleUrl>
            </Pair>
            <Pair>
                <key>highlight</key>
                <styleUrl>#Past Producer_highlight</styleUrl>
            </Pair>
        </StyleMap>
        <Style id="default_highlight">
            <IconStyle>
                <scale>1</scale>
                <Icon>
                    <href>http://maps.google.com/mapfiles/kml/paddle/wht-blank.png</href>
                </Icon>
            </IconStyle>
            <LabelStyle>
                <color>ffffffff</color>
            </LabelStyle>
        </Style>
        <Style id="default_normal">
            <IconStyle>
                <scale>1</scale>
                <Icon>
                    <href>http://maps.google.com/mapfiles/kml/paddle/wht-blank.png</href>
                </Icon>
            </IconStyle>
            <LabelStyle>
                <color>00ffffff</color>
            </LabelStyle>
        </Style>
        <StyleMap id="defaultStyleMap">
            <Pair>
                <key>normal</key>
                <styleUrl>#default_normal</styleUrl>
            </Pair>
            <Pair>
                <key>highlight</key>
                <styleUrl>#default_highlight</styleUrl>
            </Pair>
        </StyleMap>
    </Document>
</kml>